{
"type": "FeatureCollection",
"crs": { "type": "name", "properties": { "name": "urn:ogc:def:crs:OGC:1.3:CRS84" } },
                                                                                
"features": [
{ "type": "Feature", "properties": { "sid": 6381, "nom": "Dr Terral", "nom2": "Docteur C. TERRAL", "type": "Association", "latitude": 43.6226041, "longitude": 3.8691101 }, "geometry": { "type": "Point", "coordinates": [ 3.8691101, 43.6226041 ] } },
{ "type": "Feature", "properties": { "sid": 6405, "nom": "Vinci Autoroutes", "nom2": "Autoroute du Sud de la France", "type": "Industriel", "latitude": 43.586911776900003, "longitude": 3.9344194174 }, "geometry": { "type": "Point", "coordinates": [ 3.9344194174, 43.586911776900003 ] } },
{ "type": "Feature", "properties": { "sid": 6409, "nom": "Véolia Eau", "nom2": "VEOLIA EAU - CGE", "type": "Industriel", "latitude": 44.163414041099998, "longitude": 4.1566103313 }, "geometry": { "type": "Point", "coordinates": [ 4.1566103313, 44.163414041099998 ] } },
{ "type": "Feature", "properties": { "sid": 6411, "nom": "U.F.C.", "nom2": "Union Fédérale des Consommateurs", "type": "Association", "latitude": 43.528906, "longitude": 3.933493 }, "geometry": { "type": "Point", "coordinates": [ 3.933493, 43.528906 ] } },
{ "type": "Feature", "properties": { "sid": 6417, "nom": "UNICEM LR", "nom2": null, "type": null, "latitude": 43.615289882, "longitude": 3.9105547489 }, "geometry": { "type": "Point", "coordinates": [ 3.9105547489, 43.615289882 ] } },
{ "type": "Feature", "properties": { "sid": 6428, "nom": "Timac Agro", "nom2": "TIMAC AGRO", "type": "Industriel", "latitude": 43.4078758, "longitude": 3.7008219 }, "geometry": { "type": "Point", "coordinates": [ 3.7008219, 43.4078758 ] } },
{ "type": "Feature", "properties": { "sid": 6436, "nom": "Terreal", "nom2": null, "type": null, "latitude": 43.393203375100001, "longitude": 1.9741828516 }, "geometry": { "type": "Point", "coordinates": [ 1.9741828516, 43.393203375100001 ] } },
{ "type": "Feature", "properties": { "sid": 6444, "nom": "TAM Direction Projet Tramway", "nom2": "TAM", "type": "Industriel", "latitude": 43.5805137, "longitude": 3.8705217 }, "geometry": { "type": "Point", "coordinates": [ 3.8705217, 43.5805137 ] } },
{ "type": "Feature", "properties": { "sid": 6447, "nom": "Syndicat entre Pic Et Etang", "nom2": "Syndicat entre Pic Et Etang", "type": "Industriel", "latitude": 43.6739028, "longitude": 4.0871008 }, "geometry": { "type": "Point", "coordinates": [ 4.0871008, 43.6739028 ] } },
{ "type": "Feature", "properties": { "sid": 6450, "nom": "Sydetom 66", "nom2": "Sydetom 66", "type": "Industriel", "latitude": 42.6631389, "longitude": 2.8365646 }, "geometry": { "type": "Point", "coordinates": [ 2.8365646, 42.6631389 ] } },
{ "type": "Feature", "properties": { "sid": 6458, "nom": "SVLR-ISDND", "nom2": "SVLR-ISDND", "type": "Industriel", "latitude": 42.7754856, "longitude": 2.8235959 }, "geometry": { "type": "Point", "coordinates": [ 2.8235959, 42.7754856 ] } },
{ "type": "Feature", "properties": { "sid": 6464, "nom": "SPN LR", "nom2": "SPN LR", "type": "Association", "latitude": 43.6538262, "longitude": 3.8036881 }, "geometry": { "type": "Point", "coordinates": [ 3.8036881, 43.6538262 ] } },
{ "type": "Feature", "properties": { "sid": 6469, "nom": "SOREVE", "nom2": "SOREVE", "type": "Association", "latitude": 44.017003, "longitude": 4.467847 }, "geometry": { "type": "Point", "coordinates": [ 4.467847, 44.017003 ] } },
{ "type": "Feature", "properties": { "sid": 6471, "nom": "Solvay", "nom2": "SOLVAY (anc RHODIA)", "type": "Industriel", "latitude": 44.167109, "longitude": 4.160302 }, "geometry": { "type": "Point", "coordinates": [ 4.160302, 44.167109 ] } },
{ "type": "Feature", "properties": { "sid": 6475, "nom": "Solag", "nom2": null, "type": null, "latitude": 43.635285293199999, "longitude": 3.5281438902 }, "geometry": { "type": "Point", "coordinates": [ 3.5281438902, 43.635285293199999 ] } },
{ "type": "Feature", "properties": { "sid": 6482, "nom": "Cazal - Socal", "nom2": null, "type": null, "latitude": 43.397868893800002, "longitude": 1.9988083913 }, "geometry": { "type": "Point", "coordinates": [ 1.9988083913, 43.397868893800002 ] } },
{ "type": "Feature", "properties": { "sid": 6487, "nom": "Sita Sud\/Néoval", "nom2": "SITA SUD\/NEOVAL", "type": "Industriel", "latitude": 44.1622659, "longitude": 4.1406807 }, "geometry": { "type": "Point", "coordinates": [ 4.1406807, 44.1622659 ] } },
{ "type": "Feature", "properties": { "sid": 6493, "nom": "SETOM", "nom2": "SETOM", "type": "Industriel", "latitude": 43.4078758, "longitude": 3.7008219 }, "geometry": { "type": "Point", "coordinates": [ 3.7008219, 43.4078758 ] } },
{ "type": "Feature", "properties": { "sid": 6499, "nom": "Servant et Fils", "nom2": null, "type": null, "latitude": 43.582854, "longitude": 3.0768808 }, "geometry": { "type": "Point", "coordinates": [ 3.0768808, 43.582854 ] } },
{ "type": "Feature", "properties": { "sid": 6502, "nom": "SERM", "nom2": "SERM", "type": "Industriel", "latitude": 43.6014236, "longitude": 3.9005335 }, "geometry": { "type": "Point", "coordinates": [ 3.9005335, 43.6014236 ] } },
{ "type": "Feature", "properties": { "sid": 6512, "nom": "Scori", "nom2": null, "type": null, "latitude": 43.4319089, "longitude": 3.703713 }, "geometry": { "type": "Point", "coordinates": [ 3.703713, 43.4319089 ] } },
{ "type": "Feature", "properties": { "sid": 6517, "nom": "SC 113", "nom2": null, "type": null, "latitude": 43.1910809, "longitude": 2.927156 }, "geometry": { "type": "Point", "coordinates": [ 2.927156, 43.1910809 ] } },
{ "type": "Feature", "properties": { "sid": 6521, "nom": "SAS Sablière de la Salanque", "nom2": "SAS Sablière de la Salanque", "type": "carrier", "latitude": 42.832317893599999, "longitude": 2.9143092504 }, "geometry": { "type": "Point", "coordinates": [ 2.9143092504, 42.832317893599999 ] } },
{ "type": "Feature", "properties": { "sid": 6523, "nom": "Sanofi Chimie", "nom2": null, "type": null, "latitude": 43.892213261199998, "longitude": 4.6865655452 }, "geometry": { "type": "Point", "coordinates": [ 4.6865655452, 43.892213261199998 ] } },
{ "type": "Feature", "properties": { "sid": 6527, "nom": "Saipol", "nom2": "SAIPOL", "type": "Industriel", "latitude": 43.4078758, "longitude": 3.7008219 }, "geometry": { "type": "Point", "coordinates": [ 3.7008219, 43.4078758 ] } },
{ "type": "Feature", "properties": { "sid": 6533, "nom": "S.T.P.C.", "nom2": null, "type": null, "latitude": 43.846128973600003, "longitude": 3.7249590232 }, "geometry": { "type": "Point", "coordinates": [ 3.7249590232, 43.846128973600003 ] } },
{ "type": "Feature", "properties": { "sid": 6542, "nom": "Robert Carrières et Matériaux", "nom2": "Robert Carrières et Matériaux", "type": "carrier", "latitude": 44.169166894299998, "longitude": 4.4469907031 }, "geometry": { "type": "Point", "coordinates": [ 4.4469907031, 44.169166894299998 ] } },
{ "type": "Feature", "properties": { "sid": 6562, "nom": "René BAYLET", "nom2": "René BAYLET", "type": "Particulier", "latitude": 43.626376, "longitude": 3.8465591 }, "geometry": { "type": "Point", "coordinates": [ 3.8465591, 43.626376 ] } },
{ "type": "Feature", "properties": { "sid": 6574, "nom": "Provençale S.A.", "nom2": null, "type": null, "latitude": 42.823427965, "longitude": 2.7771391602 }, "geometry": { "type": "Point", "coordinates": [ 2.7771391602, 42.823427965 ] } },
{ "type": "Feature", "properties": { "sid": 6583, "nom": "Préfecture du Gard", "nom2": "Préfecture du Gard", "type": "Etat", "latitude": 43.8328643, "longitude": 4.3660606 }, "geometry": { "type": "Point", "coordinates": [ 4.3660606, 43.8328643 ] } },
{ "type": "Feature", "properties": { "sid": 6585, "nom": "Préfecture des Pyrénées-Orientales", "nom2": "Préfecture des Pyrénées-Orientales", "type": "Etat", "latitude": 42.7000849, "longitude": 2.8935161 }, "geometry": { "type": "Point", "coordinates": [ 2.8935161, 42.7000849 ] } },
{ "type": "Feature", "properties": { "sid": 6590, "nom": "Préfecture de l", "nom2": "Préfecture de l’Hérault\/SGAR", "type": "Etat", "latitude": 43.6109586, "longitude": 3.8764207 }, "geometry": { "type": "Point", "coordinates": [ 3.8764207, 43.6109586 ] } },
{ "type": "Feature", "properties": { "sid": 6592, "nom": "Préfecture de l'Aude", "nom2": "Préfecture de l’Aude", "type": "Etat", "latitude": 43.214541, "longitude": 2.354029 }, "geometry": { "type": "Point", "coordinates": [ 2.354029, 43.214541 ] } },
{ "type": "Feature", "properties": { "sid": 6596, "nom": "Préfecture de la Lozère", "nom2": "Préfecture de la Lozère", "type": "Etat", "latitude": 44.5175216, "longitude": 3.4981484 }, "geometry": { "type": "Point", "coordinates": [ 3.4981484, 44.5175216 ] } },
{ "type": "Feature", "properties": { "sid": 6599, "nom": "Port de Sète Sud de France", "nom2": "Port de Sète Sud de France", "type": "Industriel", "latitude": 43.4066526, "longitude": 3.6968513 }, "geometry": { "type": "Point", "coordinates": [ 3.6968513, 43.4066526 ] } },
{ "type": "Feature", "properties": { "sid": 6608, "nom": "Parc National des Cévennes", "nom2": "Parc National des Cévennes", "type": "Association", "latitude": 44.322952, "longitude": 3.5935391 }, "geometry": { "type": "Point", "coordinates": [ 3.5935391, 44.322952 ] } },
{ "type": "Feature", "properties": { "sid": 6613, "nom": "Owens Illinois", "nom2": "Owens Illinois", "type": "Industriel", "latitude": 43.743522, "longitude": 4.220695 }, "geometry": { "type": "Point", "coordinates": [ 4.220695, 43.743522 ] } },
{ "type": "Feature", "properties": { "sid": 6614, "nom": "Owens Corning Fiberglas", "nom2": "Owens Corning Fiberglas", "type": "Industriel", "latitude": 44.105296, "longitude": 4.657439 }, "geometry": { "type": "Point", "coordinates": [ 4.657439, 44.105296 ] } },
{ "type": "Feature", "properties": { "sid": 6626, "nom": "Omya S.A.", "nom2": "Omya S.A.", "type": "carrier", "latitude": 42.831589427499999, "longitude": 2.9163174543 }, "geometry": { "type": "Point", "coordinates": [ 2.9163174543, 42.831589427499999 ] } },
{ "type": "Feature", "properties": { "sid": 6631, "nom": "Office National de la Forêt", "nom2": "Office National de la Forêt", "type": "Association", "latitude": 43.9272664, "longitude": 4.8049815 }, "geometry": { "type": "Point", "coordinates": [ 4.8049815, 43.9272664 ] } },
{ "type": "Feature", "properties": { "sid": 6634, "nom": "Ocréal", "nom2": "OCREAL", "type": "Industriel", "latitude": 43.674521744899998, "longitude": 4.0797983809 }, "geometry": { "type": "Point", "coordinates": [ 4.0797983809, 43.674521744899998 ] } },
{ "type": "Feature", "properties": { "sid": 6636, "nom": "Oc Via Construction", "nom2": null, "type": null, "latitude": 43.7870984, "longitude": 4.3530633 }, "geometry": { "type": "Point", "coordinates": [ 4.3530633, 43.7870984 ] } },
{ "type": "Feature", "properties": { "sid": 6641, "nom": "O.I. Manufacturing", "nom2": "O.I. Manufacturing", "type": "Industriel", "latitude": 43.348352565299997, "longitude": 3.1349424915 }, "geometry": { "type": "Point", "coordinates": [ 3.1349424915, 43.348352565299997 ] } },
{ "type": "Feature", "properties": { "sid": 6649, "nom": "Nouvelles Carrières du Pic St Loup", "nom2": "Nouvelles Carrières du Pic St Loup", "type": "carrier", "latitude": 43.741286104099999, "longitude": 3.7021748907 }, "geometry": { "type": "Point", "coordinates": [ 3.7021748907, 43.741286104099999 ] } },
{ "type": "Feature", "properties": { "sid": 6663, "nom": "Montpellier Méditerranée Métropole", "nom2": "Communauté d’Agglomération Montpellier Agglomération", "type": "Collectivité", "latitude": 43.6079366, "longitude": 3.8913345 }, "geometry": { "type": "Point", "coordinates": [ 3.8913345, 43.6079366 ] } },
{ "type": "Feature", "properties": { "sid": 6670, "nom": "MNLE 30", "nom2": "MNLE 30", "type": "Association", "latitude": 43.8544018, "longitude": 4.3975461 }, "geometry": { "type": "Point", "coordinates": [ 4.3975461, 43.8544018 ] } },
{ "type": "Feature", "properties": { "sid": 6683, "nom": "Météo France", "nom2": "Météo France", "type": "Association", "latitude": 43.578649, "longitude": 3.952674 }, "geometry": { "type": "Point", "coordinates": [ 3.952674, 43.578649 ] } },
{ "type": "Feature", "properties": { "sid": 7022, "nom": "LRM \/ Carrière des Garrigues", "nom2": null, "type": null, "latitude": 43.1942022, "longitude": 2.9490704 }, "geometry": { "type": "Point", "coordinates": [ 2.9490704, 43.1942022 ] } },
{ "type": "Feature", "properties": { "sid": 7026, "nom": "Lokatrans \/ Unostra", "nom2": "Lokatrans \/ Unostra", "type": "Industriel", "latitude": 43.4561387, "longitude": 3.7629708 }, "geometry": { "type": "Point", "coordinates": [ 3.7629708, 43.4561387 ] } },
{ "type": "Feature", "properties": { "sid": 7036, "nom": "Les Calcaires du Gard", "nom2": null, "type": null, "latitude": 44.1255323675, "longitude": 4.4726569727 }, "geometry": { "type": "Point", "coordinates": [ 4.4726569727, 44.1255323675 ] } },
{ "type": "Feature", "properties": { "sid": 7044, "nom": "Lavoye & Fils", "nom2": null, "type": null, "latitude": 42.981556977799997, "longitude": 3.0178983286 }, "geometry": { "type": "Point", "coordinates": [ 3.0178983286, 42.981556977799997 ] } },
{ "type": "Feature", "properties": { "sid": 7051, "nom": "Languedoc Granulats", "nom2": null, "type": null, "latitude": 43.724218114800003, "longitude": 3.7852296009 }, "geometry": { "type": "Point", "coordinates": [ 3.7852296009, 43.724218114800003 ] } },
{ "type": "Feature", "properties": { "sid": 7058, "nom": "Lafarge Granulats France", "nom2": null, "type": null, "latitude": 43.528861190699999, "longitude": 3.822307483 }, "geometry": { "type": "Point", "coordinates": [ 3.822307483, 43.528861190699999 ] } },
{ "type": "Feature", "properties": { "sid": 7063, "nom": "Lafarge Ciments", "nom2": "Lafarge Ciments", "type": "Industriel", "latitude": 43.0220002, "longitude": 3.0332262 }, "geometry": { "type": "Point", "coordinates": [ 3.0332262, 43.0220002 ] } },
{ "type": "Feature", "properties": { "sid": 7082, "nom": "Joffre de Travaux Publics", "nom2": "Joffre de Travaux Publics", "type": "carrier", "latitude": 44.116346605799997, "longitude": 4.284337751 }, "geometry": { "type": "Point", "coordinates": [ 4.284337751, 44.116346605799997 ] } },
{ "type": "Feature", "properties": { "sid": 7095, "nom": "Imérys Céramics France", "nom2": null, "type": null, "latitude": 42.8143623, "longitude": 2.5104611 }, "geometry": { "type": "Point", "coordinates": [ 2.5104611, 42.8143623 ] } },
{ "type": "Feature", "properties": { "sid": 7104, "nom": "Henri Leygue SARL", "nom2": null, "type": null, "latitude": 43.617096135499999, "longitude": 3.4988863542 }, "geometry": { "type": "Point", "coordinates": [ 3.4988863542, 43.617096135499999 ] } },
{ "type": "Feature", "properties": { "sid": 7124, "nom": "G.S.M. Languedoc", "nom2": null, "type": null, "latitude": 43.5732615063, "longitude": 3.8528654288 }, "geometry": { "type": "Point", "coordinates": [ 3.8528654288, 43.5732615063 ] } },
{ "type": "Feature", "properties": { "sid": 7134, "nom": "FNE LR", "nom2": null, "type": null, "latitude": 43.1819207, "longitude": 2.9871954 }, "geometry": { "type": "Point", "coordinates": [ 2.9871954, 43.1819207 ] } },
{ "type": "Feature", "properties": { "sid": 7139, "nom": "Ferropem", "nom2": "Ferropem", "type": "Industriel", "latitude": 44.097579, "longitude": 4.703081 }, "geometry": { "type": "Point", "coordinates": [ 4.703081, 44.097579 ] } },
{ "type": "Feature", "properties": { "sid": 7145, "nom": "Faculté de Pharmacie", "nom2": "Faculté de Pharmacie", "type": "Association", "latitude": 43.6238926, "longitude": 3.8619142 }, "geometry": { "type": "Point", "coordinates": [ 3.8619142, 43.6238926 ] } },
{ "type": "Feature", "properties": { "sid": 7149, "nom": "Union des Industries Chimiques LR", "nom2": "Union des Industries Chimiques", "type": "Industriel", "latitude": 43.9078446778, "longitude": 4.716091302 }, "geometry": { "type": "Point", "coordinates": [ 4.716091302, 43.9078446778 ] } },
{ "type": "Feature", "properties": { "sid": 7152, "nom": "Ets Patebex", "nom2": "Ets Patebex", "type": "carrier", "latitude": 43.2444328343, "longitude": 2.1132524669 }, "geometry": { "type": "Point", "coordinates": [ 2.1132524669, 43.2444328343 ] } },
{ "type": "Feature", "properties": { "sid": 7163, "nom": "El Fourat Environnement", "nom2": null, "type": null, "latitude": 42.778508302600002, "longitude": 2.9468859508 }, "geometry": { "type": "Point", "coordinates": [ 2.9468859508, 42.778508302600002 ] } },
{ "type": "Feature", "properties": { "sid": 7177, "nom": "Ecole des Mines dAlès", "nom2": "Ecole des Mines d’Alès", "type": "Association", "latitude": 44.132140207399999, "longitude": 4.0896176403 }, "geometry": { "type": "Point", "coordinates": [ 4.0896176403, 44.132140207399999 ] } },
{ "type": "Feature", "properties": { "sid": 7180, "nom": "E.N.S. Chimie", "nom2": "E.N.S. Chimie", "type": "Association", "latitude": 43.6207032, "longitude": 3.8679713 }, "geometry": { "type": "Point", "coordinates": [ 3.8679713, 43.6207032 ] } },
{ "type": "Feature", "properties": { "sid": 7182, "nom": "E.I.D. Méditerranée", "nom2": "E.I.D. Méditerranée", "type": "Association", "latitude": 43.6192501, "longitude": 3.8484805 }, "geometry": { "type": "Point", "coordinates": [ 3.8484805, 43.6192501 ] } },
{ "type": "Feature", "properties": { "sid": 7184, "nom": "DREAL Direction Energie\/Connaissance", "nom2": "D.R.E.A.L.\/SECOH", "type": "Etat", "latitude": 43.6097605, "longitude": 3.8899379 }, "geometry": { "type": "Point", "coordinates": [ 3.8899379, 43.6097605 ] } },
{ "type": "Feature", "properties": { "sid": 7214, "nom": "DRAAF LR", "nom2": "D.R.A.A.F.", "type": "Etat", "latitude": 43.6034198997, "longitude": 3.8676501335 }, "geometry": { "type": "Point", "coordinates": [ 3.8676501335, 43.6034198997 ] } },
{ "type": "Feature", "properties": { "sid": 7218, "nom": "Domitia Granulats", "nom2": null, "type": null, "latitude": 43.1942022, "longitude": 2.9490704 }, "geometry": { "type": "Point", "coordinates": [ 2.9490704, 43.1942022 ] } },
{ "type": "Feature", "properties": { "sid": 7226, "nom": "Dalkia", "nom2": null, "type": null, "latitude": 43.838508706399999, "longitude": 4.3599739075 }, "geometry": { "type": "Point", "coordinates": [ 4.3599739075, 43.838508706399999 ] } },
{ "type": "Feature", "properties": { "sid": 7229, "nom": "Cydel", "nom2": "Cydel", "type": "Industriel", "latitude": 42.758731, "longitude": 2.754799 }, "geometry": { "type": "Point", "coordinates": [ 2.754799, 42.758731 ] } },
{ "type": "Feature", "properties": { "sid": 7255, "nom": "Conseil Départemental du Gard", "nom2": "Conseil Général du Gard", "type": "Collectivité", "latitude": 43.8321193, "longitude": 4.3631291 }, "geometry": { "type": "Point", "coordinates": [ 4.3631291, 43.8321193 ] } },
{ "type": "Feature", "properties": { "sid": 7268, "nom": "Conseil Départemental de lHérault", "nom2": "Conseil Général de l’Hérault", "type": "Collectivité", "latitude": 43.6218385, "longitude": 3.8403455 }, "geometry": { "type": "Point", "coordinates": [ 3.8403455, 43.6218385 ] } },
{ "type": "Feature", "properties": { "sid": 7279, "nom": "Conseil d", "nom2": null, "type": null, "latitude": 43.6110531, "longitude": 3.8662783 }, "geometry": { "type": "Point", "coordinates": [ 3.8662783, 43.6110531 ] } },
{ "type": "Feature", "properties": { "sid": 7291, "nom": "Mairie d", "nom2": "Commune d’Osséja", "type": "Collectivité", "latitude": 42.415039, "longitude": 1.981314 }, "geometry": { "type": "Point", "coordinates": [ 1.981314, 42.415039 ] } },
{ "type": "Feature", "properties": { "sid": 7293, "nom": "Mairie d", "nom2": "Commune d’Elne", "type": "Collectivité", "latitude": 42.599465, "longitude": 2.971615 }, "geometry": { "type": "Point", "coordinates": [ 2.971615, 42.599465 ] } },
{ "type": "Feature", "properties": { "sid": 7295, "nom": "Mairie de Ventenac en Minervois", "nom2": "Commune de Ventenac en Minervois", "type": "Collectivité", "latitude": 43.2483618, "longitude": 2.8602822 }, "geometry": { "type": "Point", "coordinates": [ 2.8602822, 43.2483618 ] } },
{ "type": "Feature", "properties": { "sid": 7297, "nom": "Mairie de Vendres", "nom2": "Commune de Vendres", "type": "Collectivité", "latitude": 43.2691565, "longitude": 3.2237528 }, "geometry": { "type": "Point", "coordinates": [ 3.2237528, 43.2691565 ] } },
{ "type": "Feature", "properties": { "sid": 7298, "nom": "Mairie de Tourbes", "nom2": "Commune de Tourbes", "type": "Collectivité", "latitude": 43.445775, "longitude": 3.378177 }, "geometry": { "type": "Point", "coordinates": [ 3.378177, 43.445775 ] } },
{ "type": "Feature", "properties": { "sid": 7302, "nom": "Commune de Sommières", "nom2": "Commune de Sommières", "type": "Collectivité", "latitude": 43.7826182, "longitude": 4.089368 }, "geometry": { "type": "Point", "coordinates": [ 4.089368, 43.7826182 ] } },
{ "type": "Feature", "properties": { "sid": 7304, "nom": "Commune de Saint-Cyprien", "nom2": "Commune de Saint-Cyprien", "type": "Collectivité", "latitude": 42.6176593, "longitude": 3.0045401 }, "geometry": { "type": "Point", "coordinates": [ 3.0045401, 42.6176593 ] } },
{ "type": "Feature", "properties": { "sid": 7310, "nom": "Commune de Parignargues", "nom2": "Commune de Parignargues", "type": "Collectivité", "latitude": 43.8737747, "longitude": 4.2074452 }, "geometry": { "type": "Point", "coordinates": [ 4.2074452, 43.8737747 ] } },
{ "type": "Feature", "properties": { "sid": 7312, "nom": "Commune de Montblanc", "nom2": "Commune de Montblanc", "type": "Collectivité", "latitude": 43.3950303, "longitude": 3.3659397 }, "geometry": { "type": "Point", "coordinates": [ 3.3659397, 43.3950303 ] } },
{ "type": "Feature", "properties": { "sid": 7313, "nom": "Commune de Lespignan", "nom2": "Commune de Lespignan", "type": "Collectivité", "latitude": 43.2729846, "longitude": 3.1737774 }, "geometry": { "type": "Point", "coordinates": [ 3.1737774, 43.2729846 ] } },
{ "type": "Feature", "properties": { "sid": 7314, "nom": "Commune de Lamalou les Bains", "nom2": "Commune de Lamalou les Bains", "type": "Collectivité", "latitude": 43.5977735, "longitude": 3.079906 }, "geometry": { "type": "Point", "coordinates": [ 3.079906, 43.5977735 ] } },
{ "type": "Feature", "properties": { "sid": 7317, "nom": "Mairie de Cazouls les Béziers", "nom2": "Commune de Cazouls les Béziers", "type": "Collectivité", "latitude": 43.3682826, "longitude": 3.155079 }, "geometry": { "type": "Point", "coordinates": [ 3.155079, 43.3682826 ] } },
{ "type": "Feature", "properties": { "sid": 7318, "nom": "Commune d Argelès S\/Mer", "nom2": "Commune d’Argelès S\/Mer", "type": "Collectivité", "latitude": 42.5493785, "longitude": 3.0224096 }, "geometry": { "type": "Point", "coordinates": [ 3.0224096, 42.5493785 ] } },
{ "type": "Feature", "properties": { "sid": 7347, "nom": "Comité des Intérêts du Quartier des Marronniers", "nom2": "Comité des Intérêts de  Quartier Marronniers", "type": "Association", "latitude": 43.824004134200003, "longitude": 4.3685650659 }, "geometry": { "type": "Point", "coordinates": [ 4.3685650659, 43.824004134200003 ] } },
{ "type": "Feature", "properties": { "sid": 7370, "nom": "Colas Midi Méditerranée", "nom2": "Colas Midi Méditerranée", "type": "carrier", "latitude": 42.627638602399998, "longitude": 2.7628079859 }, "geometry": { "type": "Point", "coordinates": [ 2.7628079859, 42.627638602399998 ] } },
{ "type": "Feature", "properties": { "sid": 7385, "nom": "Ciments Calcia", "nom2": "Ciments Calcia", "type": "Industriel", "latitude": 43.818979, "longitude": 4.603966 }, "geometry": { "type": "Point", "coordinates": [ 4.603966, 43.818979 ] } },
{ "type": "Feature", "properties": { "sid": 7395, "nom": "Centrale E.D.F.", "nom2": "Centrale E.D.F.", "type": "Industriel", "latitude": 43.890841, "longitude": 4.679413 }, "geometry": { "type": "Point", "coordinates": [ 4.679413, 43.890841 ] } },
{ "type": "Feature", "properties": { "sid": 7400, "nom": "Cemex Béton Sud-Ouest", "nom2": null, "type": null, "latitude": 43.329812, "longitude": 3.2532295 }, "geometry": { "type": "Point", "coordinates": [ 3.2532295, 43.329812 ] } },
{ "type": "Feature", "properties": { "sid": 7406, "nom": "CEA Marcoule", "nom2": "CEA VALRHO", "type": "Industriel", "latitude": 44.1987625, "longitude": 4.6572954 }, "geometry": { "type": "Point", "coordinates": [ 4.6572954, 44.1987625 ] } },
{ "type": "Feature", "properties": { "sid": 7448, "nom": "CC Nord Bassin de Thau", "nom2": "Communauté de Communes Nord Bassin de Thau", "type": "Collectivité", "latitude": 43.499587, "longitude": 3.606049 }, "geometry": { "type": "Point", "coordinates": [ 3.606049, 43.499587 ] } },
{ "type": "Feature", "properties": { "sid": 7454, "nom": "CC Montagne du Haut Languedoc", "nom2": "Communauté de Communes de la Montagne du Haut Languedoc", "type": "Collectivité", "latitude": 43.600461, "longitude": 2.702604 }, "geometry": { "type": "Point", "coordinates": [ 2.702604, 43.600461 ] } },
{ "type": "Feature", "properties": { "sid": 7483, "nom": "CC Castelnaudary et Lauragais Audois", "nom2": "Syndicat Lauragais Audois", "type": "Collectivité", "latitude": 43.331344, "longitude": 2.035234 }, "geometry": { "type": "Point", "coordinates": [ 2.035234, 43.331344 ] } },
{ "type": "Feature", "properties": { "sid": 7503, "nom": "Castille S.A.", "nom2": null, "type": null, "latitude": 43.4123479406, "longitude": 3.1422713388 }, "geometry": { "type": "Point", "coordinates": [ 3.1422713388, 43.4123479406 ] } },
{ "type": "Feature", "properties": { "sid": 7506, "nom": "Carrières Calcaires Corbières", "nom2": null, "type": null, "latitude": 43.230463, "longitude": 2.888385 }, "geometry": { "type": "Point", "coordinates": [ 2.888385, 43.230463 ] } },
{ "type": "Feature", "properties": { "sid": 7508, "nom": "Carrière Terrisse", "nom2": null, "type": null, "latitude": 43.884512839300001, "longitude": 3.9586721562 }, "geometry": { "type": "Point", "coordinates": [ 3.9586721562, 43.884512839300001 ] } },
{ "type": "Feature", "properties": { "sid": 7510, "nom": "Carrière des Roches Bleues", "nom2": "Carrière des Roches Bleues", "type": "carrier", "latitude": 43.398513262599998, "longitude": 3.4122650636 }, "geometry": { "type": "Point", "coordinates": [ 3.4122650636, 43.398513262599998 ] } },
{ "type": "Feature", "properties": { "sid": 7515, "nom": "Carayon", "nom2": null, "type": null, "latitude": 43.488670943300001, "longitude": 2.7634506226 }, "geometry": { "type": "Point", "coordinates": [ 2.7634506226, 43.488670943300001 ] } },
{ "type": "Feature", "properties": { "sid": 7548, "nom": "Caminal", "nom2": null, "type": null, "latitude": 42.696559149, "longitude": 2.8565867021 }, "geometry": { "type": "Point", "coordinates": [ 2.8565867021, 42.696559149 ] } },
{ "type": "Feature", "properties": { "sid": 7550, "nom": "Calcaires du Biterrois", "nom2": "Calcaires du Biterrois", "type": "carrier", "latitude": 43.2988051285, "longitude": 3.2084331586 }, "geometry": { "type": "Point", "coordinates": [ 3.2084331586, 43.2988051285 ] } },
{ "type": "Feature", "properties": { "sid": 7554, "nom": "CA Perpignan Méditerranée", "nom2": "Communauté d’Agglomération Perpignan Méditerranée", "type": "Collectivité", "latitude": 42.636795, "longitude": 2.914038 }, "geometry": { "type": "Point", "coordinates": [ 2.914038, 42.636795 ] } },
{ "type": "Feature", "properties": { "sid": 7558, "nom": "CA Pays de l", "nom2": "Communauté de Communes du Pays de l’Or", "type": "Collectivité", "latitude": 43.6179109228, "longitude": 4.0088453532 }, "geometry": { "type": "Point", "coordinates": [ 4.0088453532, 43.6179109228 ] } },
{ "type": "Feature", "properties": { "sid": 7569, "nom": "CA Nîmes Métropole", "nom2": "Communauté d’Agglomération Nîmes Métropole", "type": "Collectivité", "latitude": 43.8206718, "longitude": 4.3573276 }, "geometry": { "type": "Point", "coordinates": [ 4.3573276, 43.8206718 ] } },
{ "type": "Feature", "properties": { "sid": 7570, "nom": "CA le Grand Narbonne", "nom2": "Communauté d’Agglomération Le Grand Narbonne", "type": "Collectivité", "latitude": 43.1853728, "longitude": 3.0015162 }, "geometry": { "type": "Point", "coordinates": [ 3.0015162, 43.1853728 ] } },
{ "type": "Feature", "properties": { "sid": 7578, "nom": "CA Hérault Méditerranée", "nom2": "Communauté d’Agglomération Hérault Méditerranée", "type": "Collectivité", "latitude": 43.3912241, "longitude": 3.4191807 }, "geometry": { "type": "Point", "coordinates": [ 3.4191807, 43.3912241 ] } },
{ "type": "Feature", "properties": { "sid": 7586, "nom": "CA Béziers Méditerranée", "nom2": "Communauté d’Agglomération Béziers Méditerranée", "type": "Collectivité", "latitude": 43.3362288, "longitude": 3.2235676 }, "geometry": { "type": "Point", "coordinates": [ 3.2235676, 43.3362288 ] } },
{ "type": "Feature", "properties": { "sid": 7588, "nom": "CA Bassin de Thau - Thau Agglo", "nom2": "Communauté d’Agglomération Thau Agglomération", "type": "Collectivité", "latitude": 43.413595, "longitude": 3.69151 }, "geometry": { "type": "Point", "coordinates": [ 3.69151, 43.413595 ] } },
{ "type": "Feature", "properties": { "sid": 7591, "nom": "CA Alès Agglomération", "nom2": "Communauté d’Agglomération Alès Agglomération", "type": "Collectivité", "latitude": 44.124597115599997, "longitude": 4.0812866991 }, "geometry": { "type": "Point", "coordinates": [ 4.0812866991, 44.124597115599997 ] } },
{ "type": "Feature", "properties": { "sid": 7594, "nom": "C.T.I.", "nom2": "C.T.I.", "type": "Industriel", "latitude": 44.1640757, "longitude": 4.1557752 }, "geometry": { "type": "Point", "coordinates": [ 4.1557752, 44.1640757 ] } },
{ "type": "Feature", "properties": { "sid": 7595, "nom": "C.R.E.A.I.-O.R.S. LR", "nom2": "CREAI-ORS LR", "type": "Association", "latitude": 43.581033017800003, "longitude": 3.8794518532 }, "geometry": { "type": "Point", "coordinates": [ 3.8794518532, 43.581033017800003 ] } },
{ "type": "Feature", "properties": { "sid": 7597, "nom": "C.P.I.E. APIEU Montpellier (DIFED)", "nom2": "CPIE APIEU Montpellier (DIFED)", "type": "Association", "latitude": 43.6123434, "longitude": 3.8576033 }, "geometry": { "type": "Point", "coordinates": [ 3.8576033, 43.6123434 ] } },
{ "type": "Feature", "properties": { "sid": 7600, "nom": "C.M.F. Products (anc. Carmeuse)", "nom2": null, "type": null, "latitude": 44.165710660899997, "longitude": 4.4361755715 }, "geometry": { "type": "Point", "coordinates": [ 4.4361755715, 44.165710660899997 ] } },
{ "type": "Feature", "properties": { "sid": 7601, "nom": "C.H.U. Montpellier", "nom2": null, "type": null, "latitude": 43.6328072, "longitude": 3.8511007 }, "geometry": { "type": "Point", "coordinates": [ 3.8511007, 43.6328072 ] } },
{ "type": "Feature", "properties": { "sid": 7603, "nom": "C.H.S.C.T. Douanes de l", "nom2": null, "type": null, "latitude": 43.404425987, "longitude": 3.7039149982 }, "geometry": { "type": "Point", "coordinates": [ 3.7039149982, 43.404425987 ] } },
{ "type": "Feature", "properties": { "sid": 7607, "nom": "Bivap", "nom2": "B.I.V.A.P.", "type": "Association", "latitude": 43.3687596, "longitude": 3.0367866 }, "geometry": { "type": "Point", "coordinates": [ 3.0367866, 43.3687596 ] } },
{ "type": "Feature", "properties": { "sid": 7613, "nom": "Biocama Industries (siège social)", "nom2": null, "type": null, "latitude": 43.6592141, "longitude": 3.9511265 }, "geometry": { "type": "Point", "coordinates": [ 3.9511265, 43.6592141 ] } },
{ "type": "Feature", "properties": { "sid": 7619, "nom": "Axens", "nom2": "AXENS", "type": "Industriel", "latitude": 44.1600075, "longitude": 4.1654103 }, "geometry": { "type": "Point", "coordinates": [ 4.1654103, 44.1600075 ] } },
{ "type": "Feature", "properties": { "sid": 7624, "nom": "Automobile Club", "nom2": "Automobile Club", "type": "Association", "latitude": 43.8114212, "longitude": 4.3332209 }, "geometry": { "type": "Point", "coordinates": [ 4.3332209, 43.8114212 ] } },
{ "type": "Feature", "properties": { "sid": 7627, "nom": "Aude Agrégats", "nom2": null, "type": null, "latitude": 43.286791046600001, "longitude": 2.2345430925 }, "geometry": { "type": "Point", "coordinates": [ 2.2345430925, 43.286791046600001 ] } },
{ "type": "Feature", "properties": { "sid": 7694, "nom": "Areva NC", "nom2": "AREVA NC", "type": "Industriel", "latitude": 43.184277, "longitude": 3.003078 }, "geometry": { "type": "Point", "coordinates": [ 3.003078, 43.184277 ] } },
{ "type": "Feature", "properties": { "sid": 7727, "nom": "Agence Locale de lEnergie", "nom2": "Agence Locale de l’Energie", "type": "Association", "latitude": 43.608438018900003, "longitude": 3.886249486 }, "geometry": { "type": "Point", "coordinates": [ 3.886249486, 43.608438018900003 ] } },
{ "type": "Feature", "properties": { "sid": 7731, "nom": "Aéroport Montpellier-Méditerranée", "nom2": "Aéroport Montpellier-Méditerranée", "type": "Industriel", "latitude": 43.580158597100002, "longitude": 3.9601425246 }, "geometry": { "type": "Point", "coordinates": [ 3.9601425246, 43.580158597100002 ] } },
{ "type": "Feature", "properties": { "sid": 7734, "nom": "ADEME", "nom2": "ADEME", "type": "Etat", "latitude": 43.607043074499998, "longitude": 3.8927869751 }, "geometry": { "type": "Point", "coordinates": [ 3.8927869751, 43.607043074499998 ] } },
{ "type": "Feature", "properties": { "sid": 7741, "nom": "A.R.S.", "nom2": "A.R.S.", "type": "Etat", "latitude": 43.6085889, "longitude": 3.9176193 }, "geometry": { "type": "Point", "coordinates": [ 3.9176193, 43.6085889 ] } },
{ "type": "Feature", "properties": { "sid": 7749, "nom": "SIKA France SAS", "nom2": "SIKA France SAS", "type": "carrier", "latitude": 43.866665951800002, "longitude": 4.438641832 }, "geometry": { "type": "Point", "coordinates": [ 4.438641832, 43.866665951800002 ] } },
{ "type": "Feature", "properties": { "sid": 7797, "nom": "Syndicat Mixte SCOT Sud Gard", "nom2": "Syndicat Mixte SCOT Sud Gard", "type": "Collectivité", "latitude": 43.836503516800001, "longitude": 4.3599674912 }, "geometry": { "type": "Point", "coordinates": [ 4.3599674912, 43.836503516800001 ] } }
]
}
